{"meta": {"code": 200, "requestId": "5eea369a9ca1e36a523bb84b"}, "response": {"venues": [{"id": "4b06c80ff964a52023f022e3", "name": "Bond Street London Underground Station", "location": {"address": "Oxford St", "lat": 51.514391, "lng": -0.14909, "labeledLatLngs": [{"label": "display", "lat": 51.514391, "lng": -0.14909}], "distance": 361, "postalCode": "W1R 1FE", "cc": "GB", "city": "London", "state": "Greater London", "country": "United Kingdom", "formattedAddress": ["Oxford St", "London", "Greater London", "W1R 1FE", "United Kingdom"]}, "categories": [{"id": "4bf58dd8d48988d1fd931735", "name": "Metro Station", "pluralName": "Metro Stations", "shortName": "Metro", "icon": {"prefix": "https://ss3.4sqi.net/img/categories_v2/travel/subway_", "suffix": ".png"}, "primary": true}], "referralId": "v-1592407741", "hasPerk": false}, {"id": "4b54b78bf964a520a8c827e3", "name": "Green Park London Underground Station", "location": {"address": "Piccadilly", "crossStreet": "at Stratton St", "lat": 51.5067341345345, "lng": -0.14262992032632832, "labeledLatLngs": [{"label": "display", "lat": 51.5067341345345, "lng": -0.14262992032632832}], "distance": 938, "postalCode": "W1J 9DZ", "cc": "GB", "city": "London", "state": "Greater London", "country": "United Kingdom", "formattedAddress": ["Piccadilly (at Stratton St)", "London", "Greater London", "W1J 9DZ", "United Kingdom"]}, "categories": [{"id": "4bf58dd8d48988d1fd931735", "name": "Metro Station", "pluralName": "Metro Stations", "shortName": "Metro", "icon": {"prefix": "https://ss3.4sqi.net/img/categories_v2/travel/subway_", "suffix": ".png"}, "primary": true}], "referralId": "v-1592407741", "hasPerk": false}, {"id": "4ad4a773f964a52083e820e3", "name": "Baker Street London Underground Station", "location": {"address": "Marylebone Rd", "crossStreet": "at Baker St", "lat": 51.522960828901226, "lng": -0.15720387305906297, "labeledLatLngs": [{"label": "display", "lat": 51.522960828901226, "lng": -0.15720387305906297}], "distance": 1233, "postalCode": "NW1 5RU", "cc": "GB", "city": "London", "state": "Greater London", "country": "United Kingdom", "formattedAddress": ["Marylebone Rd (at Baker St)", "London", "Greater London", "NW1 5RU", "United Kingdom"]}, "categories": [{"id": "4bf58dd8d48988d1fd931735", "name": "Metro Station", "pluralName": "Metro Stations", "shortName": "Metro", "icon": {"prefix": "https://ss3.4sqi.net/img/categories_v2/travel/subway_", "suffix": ".png"}, "primary": true}], "referralId": "v-1592407741", "hasPerk": false}, {"id": "4b5dee57f964a520767429e3", "name": "Victoria London Underground Station", "location": {"address": "Victoria St", "lat": 51.49549515931713, "lng": -0.1442296196876315, "labeledLatLngs": [{"label": "display", "lat": 51.49549515931713, "lng": -0.1442296196876315}], "distance": 1955, "postalCode": "SW1E 5ND", "cc": "GB", "city": "London", "state": "Greater London", "country": "United Kingdom", "formattedAddress": ["Victoria St", "London", "Greater London", "SW1E 5ND", "United Kingdom"]}, "categories": [{"id": "4bf58dd8d48988d1fd931735", "name": "Metro Station", "pluralName": "Metro Stations", "shortName": "Metro", "icon": {"prefix": "https://ss3.4sqi.net/img/categories_v2/travel/subway_", "suffix": ".png"}, "primary": true}], "referralId": "v-1592407741", "hasPerk": false}, {"id": "4ad8ba95f964a520161421e3", "name": "Piccadilly Circus London Underground Station", "location": {"address": "Piccadilly Circus", "lat": 51.51000559556648, "lng": -0.13461526204827717, "labeledLatLngs": [{"label": "display", "lat": 51.51000559556648, "lng": -0.13461526204827717}], "distance": 1293, "postalCode": "W1J 9HP", "cc": "GB", "city": "London", "state": "Greater London", "country": "United Kingdom", "formattedAddress": ["Piccadilly Circus", "London", "Greater London", "W1J 9HP", "United Kingdom"]}, "categories": [{"id": "4bf58dd8d48988d1fd931735", "name": "Metro Station", "pluralName": "Metro Stations", "shortName": "Metro", "icon": {"prefix": "https://ss3.4sqi.net/img/categories_v2/travel/subway_", "suffix": ".png"}, "primary": true}], "referralId": "v-1592407741", "hasPerk": false}, {"id": "4ace3173f964a520f9ce20e3", "name": "Oxford Circus London Underground Station", "location": {"address": "Oxford St", "crossStreet": "Regent St", "lat": 51.51525803425088, "lng": -0.1419028172844449, "labeledLatLngs": [{"label": "display", "lat": 51.51525803425088, "lng": -0.1419028172844449}], "distance": 837, "postalCode": "W1R 1AB", "cc": "GB", "city": "London", "state": "Greater London", "country": "United Kingdom", "formattedAddress": ["Oxford St (Regent St)", "London", "Greater London", "W1R 1AB", "United Kingdom"]}, "categories": [{"id": "4bf58dd8d48988d1fd931735", "name": "Metro Station", "pluralName": "Metro Stations", "shortName": "Metro", "icon": {"prefix": "https://ss3.4sqi.net/img/categories_v2/travel/subway_", "suffix": ".png"}, "primary": true}], "referralId": "v-1592407741", "hasPerk": false}, {"id": "4ae9970cf964a5203bb521e3", "name": "Westminster London Underground Station", "location": {"address": "Bridge St", "lat": 51.50092199879671, "lng": -0.12480205134329812, "labeledLatLngs": [{"label": "display", "lat": 51.50092199879671, "lng": -0.12480205134329812}], "distance": 2319, "postalCode": "SW1A 2JR", "cc": "GB", "city": "London", "state": "Greater London", "country": "United Kingdom", "formattedAddress": ["Bridge St", "London", "Greater London", "SW1A 2JR", "United Kingdom"]}, "categories": [{"id": "4bf58dd8d48988d1fd931735", "name": "Metro Station", "pluralName": "Metro Stations", "shortName": "Metro", "icon": {"prefix": "https://ss3.4sqi.net/img/categories_v2/travel/subway_", "suffix": ".png"}, "primary": true}], "referralId": "v-1592407741", "hasPerk": false}, {"id": "4c3344cc6f1fef3bf67cec3d", "name": "Euston London Underground Station", "location": {"address": "Eversholt St", "lat": 51.528029130647845, "lng": -0.13321994488439676, "labeledLatLngs": [{"label": "display", "lat": 51.528029130647845, "lng": -0.13321994488439676}], "distance": 2229, "postalCode": "NW1 2DU", "cc": "GB", "city": "London", "state": "Greater London", "country": "United Kingdom", "formattedAddress": ["Eversholt St", "London", "Greater London", "NW1 2DU", "United Kingdom"]}, "categories": [{"id": "4bf58dd8d48988d1fd931735", "name": "Metro Station", "pluralName": "Metro Stations", "shortName": "Metro", "icon": {"prefix": "https://ss3.4sqi.net/img/categories_v2/travel/subway_", "suffix": ".png"}, "primary": true}], "referralId": "v-1592407741", "hasPerk": false}, {"id": "58e3eb77735a4d393699acb6", "name": "Kensington (Olympia) London Underground Station", "location": {"address": "Olympia Way", "lat": 51.497277, "lng": -0.209618, "labeledLatLngs": [{"label": "display", "lat": 51.497277, "lng": -0.209618}], "distance": 4263, "postalCode": "W14 0NE", "cc": "GB", "city": "Kensington", "state": "Greater London", "country": "United Kingdom", "formattedAddress": ["Olympia Way", "Kensington", "Greater London", "W14 0NE", "United Kingdom"]}, "categories": [{"id": "4bf58dd8d48988d1fd931735", "name": "Metro Station", "pluralName": "Metro Stations", "shortName": "Metro", "icon": {"prefix": "https://ss3.4sqi.net/img/categories_v2/travel/subway_", "suffix": ".png"}, "primary": true}], "referralId": "v-1592407741", "hasPerk": false}, {"id": "4bfd71712b83b713bbb7a998", "name": "Charing Cross London Underground Station", "location": {"address": "Trafalgar Sq", "crossStreet": "at Strand", "lat": 51.50768525914683, "lng": -0.1282101304050155, "labeledLatLngs": [{"label": "display", "lat": 51.50768525914683, "lng": -0.1282101304050155}], "distance": 1786, "postalCode": "WC2N 5DR", "cc": "GB", "city": "London", "state": "Greater London", "country": "United Kingdom", "formattedAddress": ["Trafalgar Sq (at Strand)", "London", "Greater London", "WC2N 5DR", "United Kingdom"]}, "categories": [{"id": "4bf58dd8d48988d1fd931735", "name": "Metro Station", "pluralName": "Metro Stations", "shortName": "Metro", "icon": {"prefix": "https://ss3.4sqi.net/img/categories_v2/travel/subway_", "suffix": ".png"}, "primary": true}], "referralId": "v-1592407741", "hasPerk": false}, {"id": "4bfce37bf7c82d7fe95f8d04", "name": "Lambeth North London Underground Station", "location": {"address": "110 Westminster Bridge Rd", "lat": 51.49852056642949, "lng": -0.11035484203675221, "labeledLatLngs": [{"label": "display", "lat": 51.49852056642949, "lng": -0.11035484203675221}], "distance": 3321, "postalCode": "SE1 7XG", "cc": "GB", "city": "London", "state": "Greater London", "country": "United Kingdom", "formattedAddress": ["110 Westminster Bridge Rd", "London", "Greater London", "SE1 7XG", "United Kingdom"]}, "categories": [{"id": "4bf58dd8d48988d1fd931735", "name": "Metro Station", "pluralName": "Metro Stations", "shortName": "Metro", "icon": {"prefix": "https://ss3.4sqi.net/img/categories_v2/travel/subway_", "suffix": ".png"}, "primary": true}], "referralId": "v-1592407741", "hasPerk": false}, {"id": "4b911beaf964a5203ea433e3", "name": "Euston Square London Underground Station", "location": {"address": "Euston Rd", "lat": 51.525444475361724, "lng": -0.1359082723369198, "labeledLatLngs": [{"label": "display", "lat": 51.525444475361724, "lng": -0.1359082723369198}], "distance": 1888, "postalCode": "NW1 2BN", "cc": "GB", "city": "London", "state": "Greater London", "country": "United Kingdom", "formattedAddress": ["Euston Rd", "London", "Greater London", "NW1 2BN", "United Kingdom"]}, "categories": [{"id": "4bf58dd8d48988d1fd931735", "name": "Metro Station", "pluralName": "Metro Stations", "shortName": "Metro", "icon": {"prefix": "https://ss3.4sqi.net/img/categories_v2/travel/subway_", "suffix": ".png"}, "primary": true}], "referralId": "v-1592407741", "hasPerk": false}, {"id": "4b954ec6f964a520839b34e3", "name": "Regent's Park London Underground Station", "location": {"address": "Marylebone Rd.", "lat": 51.52359882549038, "lng": -0.14685092973075833, "labeledLatLngs": [{"label": "display", "lat": 51.52359882549038, "lng": -0.14685092973075833}], "distance": 1337, "postalCode": "NW1 5HA", "cc": "GB", "neighborhood": "Marylebone", "city": "Marylebone", "state": "Greater London", "country": "United Kingdom", "formattedAddress": ["Marylebone Rd.", "Marylebone", "Greater London", "NW1 5HA", "United Kingdom"]}, "categories": [{"id": "4bf58dd8d48988d1fd931735", "name": "Metro Station", "pluralName": "Metro Stations", "shortName": "Metro", "icon": {"prefix": "https://ss3.4sqi.net/img/categories_v2/travel/subway_", "suffix": ".png"}, "primary": true}], "referralId": "v-1592407741", "hasPerk": false}, {"id": "4ba9f920f964a520d6403ae3", "name": "Paddington London Underground Station (District, Circle and Bakerloo lines)", "location": {"address": "Praed St", "lat": 51.516495253390225, "lng": -0.17666473635796817, "labeledLatLngs": [{"label": "display", "lat": 51.516495253390225, "lng": -0.17666473635796817}], "distance": 1711, "postalCode": "W2 1RH", "cc": "GB", "city": "London", "state": "Greater London", "country": "United Kingdom", "formattedAddress": ["Praed St", "London", "Greater London", "W2 1RH", "United Kingdom"]}, "categories": [{"id": "4bf58dd8d48988d1fd931735", "name": "Metro Station", "pluralName": "Metro Stations", "shortName": "Metro", "icon": {"prefix": "https://ss3.4sqi.net/img/categories_v2/travel/subway_", "suffix": ".png"}, "primary": true}], "referralId": "v-1592407741", "hasPerk": false}, {"id": "4b520cd2f964a5201d6427e3", "name": "Pimlico London Underground Station", "location": {"address": "Bessborough St", "lat": 51.48915471112843, "lng": -0.1335365752908993, "labeledLatLngs": [{"label": "display", "lat": 51.48915471112843, "lng": -0.1335365752908993}], "distance": 2896, "postalCode": "SW1V 2JA", "cc": "GB", "neighborhood": "Pimlico", "city": "Pimlico", "state": "Greater London", "country": "United Kingdom", "formattedAddress": ["Bessborough St", "Pimlico", "Greater London", "SW1V 2JA", "United Kingdom"]}, "categories": [{"id": "4bf58dd8d48988d1fd931735", "name": "Metro Station", "pluralName": "Metro Stations", "shortName": "Metro", "icon": {"prefix": "https://ss3.4sqi.net/img/categories_v2/travel/subway_", "suffix": ".png"}, "primary": true}], "referralId": "v-1592407741", "hasPerk": false}, {"id": "4aeb2115f964a520bbbe21e3", "name": "Covent Garden London Underground Station", "location": {"address": "Long Acre", "lat": 51.513012037278166, "lng": -0.12394096895314001, "labeledLatLngs": [{"label": "display", "lat": 51.513012037278166, "lng": -0.12394096895314001}], "distance": 2011, "postalCode": "WC2E 9JT", "cc": "GB", "city": "London", "state": "Greater London", "country": "United Kingdom", "formattedAddress": ["Long Acre", "London", "Greater London", "WC2E 9JT", "United Kingdom"]}, "categories": [{"id": "4bf58dd8d48988d1fd931735", "name": "Metro Station", "pluralName": "Metro Stations", "shortName": "Metro", "icon": {"prefix": "https://ss3.4sqi.net/img/categories_v2/travel/subway_", "suffix": ".png"}, "primary": true}], "referralId": "v-1592407741", "hasPerk": false}, {"id": "4acf786af964a520e6d320e3", "name": "King's Cross St. Pancras London Underground Station", "location": {"address": "Euston Rd", "lat": 51.53048588016881, "lng": -0.12439591454392912, "distance": 2838, "postalCode": "N1 9AL", "cc": "GB", "city": "London", "state": "Greater London", "country": "United Kingdom", "formattedAddress": ["Euston Rd", "London", "Greater London", "N1 9AL", "United Kingdom"]}, "categories": [{"id": "4bf58dd8d48988d1fd931735", "name": "Metro Station", "pluralName": "Metro Stations", "shortName": "Metro", "icon": {"prefix": "https://ss3.4sqi.net/img/categories_v2/travel/subway_", "suffix": ".png"}, "primary": true}], "referralId": "v-1592407741", "hasPerk": false}, {"id": "4ad03fa4f964a520c4d720e3", "name": "Embankment London Underground Station", "location": {"address": "Villiers St", "lat": 51.50724130540982, "lng": -0.12239649950629787, "labeledLatLngs": [{"label": "display", "lat": 51.50724130540982, "lng": -0.12239649950629787}], "distance": 2187, "postalCode": "WC2N 6NS", "cc": "GB", "city": "London", "state": "Greater London", "country": "United Kingdom", "formattedAddress": ["Villiers St", "London", "Greater London", "WC2N 6NS", "United Kingdom"]}, "categories": [{"id": "4bf58dd8d48988d1fd931735", "name": "Metro Station", "pluralName": "Metro Stations", "shortName": "Metro", "icon": {"prefix": "https://ss3.4sqi.net/img/categories_v2/travel/subway_", "suffix": ".png"}, "primary": true}], "referralId": "v-1592407741", "hasPerk": false}, {"id": "4ad0b8e9f964a5205fd920e3", "name": "South Kensington London Underground Station", "location": {"address": "Pelham St", "lat": 51.49408171646735, "lng": -0.1732658758768033, "labeledLatLngs": [{"label": "display", "lat": 51.49408171646735, "lng": -0.1732658758768033}], "distance": 2459, "postalCode": "SW7 2NB", "cc": "GB", "city": "London", "state": "Greater London", "country": "United Kingdom", "formattedAddress": ["Pelham St", "London", "Greater London", "SW7 2NB", "United Kingdom"]}, "categories": [{"id": "4bf58dd8d48988d1fd931735", "name": "Metro Station", "pluralName": "Metro Stations", "shortName": "Metro", "icon": {"prefix": "https://ss3.4sqi.net/img/categories_v2/travel/subway_", "suffix": ".png"}, "primary": true}], "referralId": "v-1592407741", "hasPerk": false}, {"id": "4ac643b6f964a52072b320e3", "name": "Angel London Underground Station", "location": {"address": "City Rd", "crossStreet": "Upper St", "lat": 51.53287910934468, "lng": -0.10599282419349608, "labeledLatLngs": [{"label": "display", "lat": 51.53287910934468, "lng": -0.10599282419349608}], "distance": 3984, "postalCode": "EC1V 1NE", "cc": "GB", "city": "Islington", "state": "Greater London", "country": "United Kingdom", "formattedAddress": ["City Rd (Upper St)", "Islington", "Greater London", "EC1V 1NE", "United Kingdom"]}, "categories": [{"id": "4bf58dd8d48988d1fd931735", "name": "Metro Station", "pluralName": "Metro Stations", "shortName": "Metro", "icon": {"prefix": "https://ss3.4sqi.net/img/categories_v2/travel/subway_", "suffix": ".png"}, "primary": true}], "referralId": "v-1592407741", "hasPerk": false}, {"id": "4ace13acf964a5203ece20e3", "name": "Farringdon London Underground Station", "location": {"address": "Cowcross St", "lat": 51.52056591442151, "lng": -0.10514962454604154, "labeledLatLngs": [{"label": "display", "lat": 51.52056591442151, "lng": -0.10514962454604154}], "distance": 3439, "postalCode": "EC1M 6BY", "cc": "GB", "city": "London", "state": "Greater London", "country": "United Kingdom", "formattedAddress": ["Cowcross St", "London", "Greater London", "EC1M 6BY", "United Kingdom"]}, "categories": [{"id": "4bf58dd8d48988d1fd931735", "name": "Metro Station", "pluralName": "Metro Stations", "shortName": "Metro", "icon": {"prefix": "https://ss3.4sqi.net/img/categories_v2/travel/subway_", "suffix": ".png"}, "primary": true}], "referralId": "v-1592407741", "hasPerk": false}, {"id": "4ad090f1f964a52074d820e3", "name": "Holborn London Underground Station", "location": {"address": "Kingsway", "lat": 51.51734367886966, "lng": -0.12029895532435339, "labeledLatLngs": [{"label": "display", "lat": 51.51734367886966, "lng": -0.12029895532435339}], "distance": 2333, "postalCode": "WC2B 6AA", "cc": "GB", "city": "London", "state": "Greater London", "country": "United Kingdom", "formattedAddress": ["Kingsway", "London", "Greater London", "WC2B 6AA", "United Kingdom"]}, "categories": [{"id": "4bf58dd8d48988d1fd931735", "name": "Metro Station", "pluralName": "Metro Stations", "shortName": "Metro", "icon": {"prefix": "https://ss3.4sqi.net/img/categories_v2/travel/subway_", "suffix": ".png"}, "primary": true}], "referralId": "v-1592407741", "hasPerk": false}, {"id": "4affffa3f964a520703a22e3", "name": "High Street Kensington London Underground Station", "location": {"address": "Kensington High St", "lat": 51.50028162732899, "lng": -0.19217023386786636, "labeledLatLngs": [{"label": "display", "lat": 51.50028162732899, "lng": -0.19217023386786636}], "distance": 3024, "postalCode": "W8 5SA", "cc": "GB", "city": "London", "state": "Greater London", "country": "United Kingdom", "formattedAddress": ["Kensington High St", "London", "Greater London", "W8 5SA", "United Kingdom"]}, "categories": [{"id": "4bf58dd8d48988d1fd931735", "name": "Metro Station", "pluralName": "Metro Stations", "shortName": "Metro", "icon": {"prefix": "https://ss3.4sqi.net/img/categories_v2/travel/subway_", "suffix": ".png"}, "primary": true}], "referralId": "v-1592407741", "hasPerk": false}, {"id": "4ad4b96df964a520e3e820e3", "name": "Warren Street London Underground Station", "location": {"address": "Tottenham Court Rd", "lat": 51.524669141661185, "lng": -0.13789103143248851, "labeledLatLngs": [{"label": "display", "lat": 51.524669141661185, "lng": -0.13789103143248851}], "distance": 1736, "postalCode": "NW1 3AA", "cc": "GB", "city": "London", "state": "Greater London", "country": "United Kingdom", "formattedAddress": ["Tottenham Court Rd", "London", "Greater London", "NW1 3AA", "United Kingdom"]}, "categories": [{"id": "4bf58dd8d48988d1fd931735", "name": "Metro Station", "pluralName": "Metro Stations", "shortName": "Metro", "icon": {"prefix": "https://ss3.4sqi.net/img/categories_v2/travel/subway_", "suffix": ".png"}, "primary": true}], "referralId": "v-1592407741", "hasPerk": false}, {"id": "4af7f7c5f964a5209e0a22e3", "name": "Gloucester Road London Underground Station", "location": {"address": "Gloucester Rd", "lat": 51.494449487103495, "lng": -0.18307418916213772, "labeledLatLngs": [{"label": "display", "lat": 51.494449487103495, "lng": -0.18307418916213772}], "distance": 2874, "postalCode": "SW7 4SF", "cc": "GB", "city": "London", "state": "Greater London", "country": "United Kingdom", "formattedAddress": ["Gloucester Rd", "London", "Greater London", "SW7 4SF", "United Kingdom"]}, "categories": [{"id": "4bf58dd8d48988d1fd931735", "name": "Metro Station", "pluralName": "Metro Stations", "shortName": "Metro", "icon": {"prefix": "https://ss3.4sqi.net/img/categories_v2/travel/subway_", "suffix": ".png"}, "primary": true}], "referralId": "v-1592407741", "hasPerk": false}, {"id": "5036b369cc6417d4bcd9a160", "name": "Earl's Court London Underground Station", "location": {"address": "Earl's Court Rd", "lat": 51.491658522828274, "lng": -0.19388316018565938, "labeledLatLngs": [{"label": "display", "lat": 51.491658522828274, "lng": -0.19388316018565938}], "distance": 3643, "postalCode": "SW5 9QA", "cc": "GB", "city": "London", "state": "Greater London", "country": "United Kingdom", "formattedAddress": ["Earl's Court Rd", "London", "Greater London", "SW5 9QA", "United Kingdom"]}, "categories": [{"id": "4bf58dd8d48988d1fd931735", "name": "Metro Station", "pluralName": "Metro Stations", "shortName": "Metro", "icon": {"prefix": "https://ss3.4sqi.net/img/categories_v2/travel/subway_", "suffix": ".png"}, "primary": true}], "referralId": "v-1592407741", "hasPerk": false}, {"id": "4b2d3d66f964a52001d224e3", "name": "Edgware Road London Underground Station (Circle, District and H&C lines)", "location": {"address": "Chapel St", "lat": 51.520183720645, "lng": -0.1670254119362918, "labeledLatLngs": [{"label": "display", "lat": 51.520183720645, "lng": -0.1670254119362918}], "distance": 1319, "postalCode": "NW1 5DH", "cc": "GB", "city": "London", "state": "Greater London", "country": "United Kingdom", "formattedAddress": ["Chapel St", "London", "Greater London", "NW1 5DH", "United Kingdom"]}, "categories": [{"id": "4bf58dd8d48988d1fd931735", "name": "Metro Station", "pluralName": "Metro Stations", "shortName": "Metro", "icon": {"prefix": "https://ss3.4sqi.net/img/categories_v2/travel/subway_", "suffix": ".png"}, "primary": true}], "referralId": "v-1592407741", "hasPerk": false}, {"id": "4ad0f0a0f964a5205adb20e3", "name": "Tottenham Court Road London Underground Station", "location": {"address": "Oxford St", "crossStreet": "at Tottenham Court Rd", "lat": 51.516312, "lng": -0.130468, "labeledLatLngs": [{"label": "display", "lat": 51.516312, "lng": -0.130468}], "distance": 1623, "postalCode": "W1D 2DA", "cc": "GB", "city": "London", "state": "Greater London", "country": "United Kingdom", "formattedAddress": ["Oxford St (at Tottenham Court Rd)", "Camden", "Greater London", "W1D 2DA", "United Kingdom"]}, "categories": [{"id": "4bf58dd8d48988d1fd931735", "name": "Metro Station", "pluralName": "Metro Stations", "shortName": "Metro", "icon": {"prefix": "https://ss3.4sqi.net/img/categories_v2/travel/subway_", "suffix": ".png"}, "primary": true}], "referralId": "v-1592407741", "hasPerk": false}, {"id": "5502bae3498ec8482e870bb4", "name": "Paddington London Underground Station (Hammersmith & City and Circle lines)", "location": {"address": "Praed St", "lat": 51.51823375078286, "lng": -0.17851894546155236, "labeledLatLngs": [{"label": "display", "lat": 51.51823375078286, "lng": -0.17851894546155236}], "distance": 1894, "postalCode": "W2 1RH", "cc": "GB", "neighborhood": "Paddington", "city": "Paddington", "state": "Greater London", "country": "United Kingdom", "formattedAddress": ["Praed St", "Paddington", "Greater London", "W2 1RH", "United Kingdom"]}, "categories": [{"id": "4bf58dd8d48988d1fd931735", "name": "Metro Station", "pluralName": "Metro Stations", "shortName": "Metro", "icon": {"prefix": "https://ss3.4sqi.net/img/categories_v2/travel/subway_", "suffix": ".png"}, "primary": true}], "venuePage": {"id": "406012216"}, "referralId": "v-1592407741", "hasPerk": false}, {"id": "4ace25fff964a520b5ce20e3", "name": "Notting Hill Gate London Underground Station", "location": {"address": "Notting Hill Gate", "lat": 51.50848614408596, "lng": -0.19596604806565424, "labeledLatLngs": [{"label": "display", "lat": 51.50848614408596, "lng": -0.19596604806565424}], "distance": 3008, "postalCode": "W11 3HT", "cc": "GB", "city": "London", "state": "Greater London", "country": "United Kingdom", "formattedAddress": ["Notting Hill Gate", "Notting Hill", "Greater London", "W11 3HT", "United Kingdom"]}, "categories": [{"id": "4bf58dd8d48988d1fd931735", "name": "Metro Station", "pluralName": "Metro Stations", "shortName": "Metro", "icon": {"prefix": "https://ss3.4sqi.net/img/categories_v2/travel/subway_", "suffix": ".png"}, "primary": true}], "referralId": "v-1592407741", "hasPerk": false}, {"id": "4ad80a2cf964a5209d1021e3", "name": "Great Portland Street London Underground Station", "location": {"address": "Euston Rd", "lat": 51.523920076220726, "lng": -0.14374617520347988, "labeledLatLngs": [{"label": "display", "lat": 51.523920076220726, "lng": -0.14374617520347988}], "distance": 1452, "postalCode": "W1W 5PP", "cc": "GB", "city": "London", "state": "Greater London", "country": "United Kingdom", "formattedAddress": ["Euston Rd", "London", "Greater London", "W1W 5PP", "United Kingdom"]}, "categories": [{"id": "4bf58dd8d48988d1fd931735", "name": "Metro Station", "pluralName": "Metro Stations", "shortName": "Metro", "icon": {"prefix": "https://ss3.4sqi.net/img/categories_v2/travel/subway_", "suffix": ".png"}, "primary": true}], "referralId": "v-1592407741", "hasPerk": false}, {"id": "4acf4666f964a520f5d220e3", "name": "Kentish Town London Underground Station", "location": {"address": "Kentish Town Rd.", "lat": 51.55044722488592, "lng": -0.14071755839038733, "labeledLatLngs": [{"label": "display", "lat": 51.55044722488592, "lng": -0.14071755839038733}], "distance": 4341, "postalCode": "NW5 2AA", "cc": "GB", "city": "London", "state": "Greater London", "country": "United Kingdom", "formattedAddress": ["Kentish Town Rd.", "London", "Greater London", "NW5 2AA", "United Kingdom"]}, "categories": [{"id": "4bf58dd8d48988d1fd931735", "name": "Metro Station", "pluralName": "Metro Stations", "shortName": "Metro", "icon": {"prefix": "https://ss3.4sqi.net/img/categories_v2/travel/subway_", "suffix": ".png"}, "primary": true}], "referralId": "v-1592407741", "hasPerk": false}, {"id": "4b6751fef964a520c3472be3", "name": "Swiss Cottage London Underground Station", "location": {"address": "Finchley Rd.", "lat": 51.543435365674696, "lng": -0.17467162890455185, "labeledLatLngs": [{"label": "display", "lat": 51.543435365674696, "lng": -0.17467162890455185}], "distance": 3788, "postalCode": "NW3 6HY", "cc": "GB", "city": "London", "state": "Greater London", "country": "United Kingdom", "formattedAddress": ["Finchley Rd.", "London", "Greater London", "NW3 6HY", "United Kingdom"]}, "categories": [{"id": "4bf58dd8d48988d1fd931735", "name": "Metro Station", "pluralName": "Metro Stations", "shortName": "Metro", "icon": {"prefix": "https://ss3.4sqi.net/img/categories_v2/travel/subway_", "suffix": ".png"}, "primary": true}], "referralId": "v-1592407741", "hasPerk": false}, {"id": "5036b369cc6417d4bcd9a16b", "name": "Elephant & Castle London Underground Station", "location": {"address": "London Rd", "lat": 51.49471953981024, "lng": -0.10048873128132133, "labeledLatLngs": [{"label": "display", "lat": 51.49471953981024, "lng": -0.10048873128132133}], "distance": 4123, "postalCode": "SE1 6LW", "cc": "GB", "city": "London", "state": "Greater London", "country": "United Kingdom", "formattedAddress": ["London Rd", "London", "Greater London", "SE1 6LW", "United Kingdom"]}, "categories": [{"id": "4bf58dd8d48988d1fd931735", "name": "Metro Station", "pluralName": "Metro Stations", "shortName": "Metro", "icon": {"prefix": "https://ss3.4sqi.net/img/categories_v2/travel/subway_", "suffix": ".png"}, "primary": true}], "referralId": "v-1592407741", "hasPerk": false}, {"id": "4acdaa91f964a5209acc20e3", "name": "Sloane Square London Underground Station", "location": {"address": "Sloane Sq.", "lat": 51.49213801223374, "lng": -0.1556468818268484, "labeledLatLngs": [{"label": "display", "lat": 51.49213801223374, "lng": -0.1556468818268484}], "distance": 2241, "postalCode": "SW1W 8BB", "cc": "GB", "city": "London", "state": "Greater London", "country": "United Kingdom", "formattedAddress": ["Sloane Sq.", "London", "Greater London", "SW1W 8BB", "United Kingdom"]}, "categories": [{"id": "4bf58dd8d48988d1fd931735", "name": "Metro Station", "pluralName": "Metro Stations", "shortName": "Metro", "icon": {"prefix": "https://ss3.4sqi.net/img/categories_v2/travel/subway_", "suffix": ".png"}, "primary": true}], "referralId": "v-1592407741", "hasPerk": false}, {"id": "4bac93e5f964a5202efc3ae3", "name": "Chalk Farm London Underground Station", "location": {"address": "Adelaide Rd", "lat": 51.54400423299482, "lng": -0.1537504697093508, "labeledLatLngs": [{"label": "display", "lat": 51.54400423299482, "lng": -0.1537504697093508}], "distance": 3540, "postalCode": "NW3 2BP", "cc": "GB", "city": "London", "state": "Greater London", "country": "United Kingdom", "formattedAddress": ["Adelaide Rd", "London", "Greater London", "NW3 2BP", "United Kingdom"]}, "categories": [{"id": "4bf58dd8d48988d1fd931735", "name": "Metro Station", "pluralName": "Metro Stations", "shortName": "Metro", "icon": {"prefix": "https://ss3.4sqi.net/img/categories_v2/travel/subway_", "suffix": ".png"}, "primary": true}], "referralId": "v-1592407741", "hasPerk": false}, {"id": "4b2d08c5f964a520c1cc24e3", "name": "Mornington Crescent London Underground Station", "location": {"address": "Eversholt St", "lat": 51.53432675658869, "lng": -0.13900568212547895, "labeledLatLngs": [{"label": "display", "lat": 51.53432675658869, "lng": -0.13900568212547895}], "distance": 2645, "postalCode": "NW1 2JA", "cc": "GB", "city": "London", "state": "Greater London", "country": "United Kingdom", "formattedAddress": ["Eversholt St", "Camden", "Greater London", "NW1 2JA", "United Kingdom"]}, "categories": [{"id": "4bf58dd8d48988d1fd931735", "name": "Metro Station", "pluralName": "Metro Stations", "shortName": "Metro", "icon": {"prefix": "https://ss3.4sqi.net/img/categories_v2/travel/subway_", "suffix": ".png"}, "primary": true}], "referralId": "v-1592407741", "hasPerk": false}, {"id": "4b0bbb5af964a520463323e3", "name": "Belsize Park London Underground Station", "location": {"address": "Haverstock Hill", "lat": 51.55032641068613, "lng": -0.1646469590482656, "labeledLatLngs": [{"label": "display", "lat": 51.55032641068613, "lng": -0.1646469590482656}], "distance": 4320, "postalCode": "NW3 2AL", "cc": "GB", "city": "London", "state": "Greater London", "country": "United Kingdom", "formattedAddress": ["Haverstock Hill", "London", "Greater London", "NW3 2AL", "United Kingdom"]}, "categories": [{"id": "4bf58dd8d48988d1fd931735", "name": "Metro Station", "pluralName": "Metro Stations", "shortName": "Metro", "icon": {"prefix": "https://ss3.4sqi.net/img/categories_v2/travel/subway_", "suffix": ".png"}, "primary": true}], "referralId": "v-1592407741", "hasPerk": false}, {"id": "4acf7f88f964a5201ed420e3", "name": "Finchley Road London Underground Station", "location": {"address": "Finchley Rd", "lat": 51.547272703740894, "lng": -0.1807309670336775, "labeledLatLngs": [{"label": "display", "lat": 51.547272703740894, "lng": -0.1807309670336775}], "distance": 4352, "postalCode": "NW3 6OP", "cc": "GB", "city": "London", "state": "Greater London", "country": "United Kingdom", "formattedAddress": ["Finchley Rd", "Camden", "Greater London", "NW3 6OP", "United Kingdom"]}, "categories": [{"id": "4bf58dd8d48988d1fd931735", "name": "Metro Station", "pluralName": "Metro Stations", "shortName": "Metro", "icon": {"prefix": "https://ss3.4sqi.net/img/categories_v2/travel/subway_", "suffix": ".png"}, "primary": true}], "referralId": "v-1592407741", "hasPerk": false}, {"id": "4b703685f964a520f00b2de3", "name": "Waterloo London Underground Station", "location": {"address": "York Rd", "crossStreet": "at Station App", "lat": 51.50332146968501, "lng": -0.11103804774731067, "labeledLatLngs": [{"label": "display", "lat": 51.50332146968501, "lng": -0.11103804774731067}], "distance": 3067, "postalCode": "SE1 7ND", "cc": "GB", "city": "London", "state": "Greater London", "country": "United Kingdom", "formattedAddress": ["York Rd (at Station App)", "London", "Greater London", "SE1 7ND", "United Kingdom"]}, "categories": [{"id": "4bf58dd8d48988d1fd931735", "name": "Metro Station", "pluralName": "Metro Stations", "shortName": "Metro", "icon": {"prefix": "https://ss3.4sqi.net/img/categories_v2/travel/subway_", "suffix": ".png"}, "primary": true}], "referralId": "v-1592407741", "hasPerk": false}, {"id": "4ae9d672f964a520eeb621e3", "name": "Temple London Underground Station", "location": {"address": "Victoria Embankment", "lat": 51.51108588713383, "lng": -0.1136464498337834, "labeledLatLngs": [{"label": "display", "lat": 51.51108588713383, "lng": -0.1136464498337834}], "distance": 2725, "postalCode": "WC2R 2PH", "cc": "GB", "city": "Temple", "state": "Greater London", "country": "United Kingdom", "formattedAddress": ["Victoria Embankment", "Temple", "Greater London", "WC2R 2PH", "United Kingdom"]}, "categories": [{"id": "4bf58dd8d48988d1fd931735", "name": "Metro Station", "pluralName": "Metro Stations", "shortName": "Metro", "icon": {"prefix": "https://ss3.4sqi.net/img/categories_v2/travel/subway_", "suffix": ".png"}, "primary": true}], "referralId": "v-1592407741", "hasPerk": false}, {"id": "4adc7ef3f964a520b12c21e3", "name": "St. Paul's London Underground Station", "location": {"address": "1 Cheapside", "crossStreet": "at Newgate St", "lat": 51.51502318754615, "lng": -0.09736137848620856, "labeledLatLngs": [{"label": "display", "lat": 51.51502318754615, "lng": -0.09736137848620856}], "distance": 3863, "postalCode": "EC2V 6AA", "cc": "GB", "city": "London", "state": "Greater London", "country": "United Kingdom", "formattedAddress": ["1 Cheapside (at Newgate St)", "London", "Greater London", "EC2V 6AA", "United Kingdom"]}, "categories": [{"id": "4bf58dd8d48988d1fd931735", "name": "Metro Station", "pluralName": "Metro Stations", "shortName": "Metro", "icon": {"prefix": "https://ss3.4sqi.net/img/categories_v2/travel/subway_", "suffix": ".png"}, "primary": true}], "referralId": "v-1592407741", "hasPerk": false}, {"id": "4b2b4868f964a5208cb524e3", "name": "Royal Oak London Underground Station", "location": {"address": "Lord Hills Bridge", "lat": 51.51909845221029, "lng": -0.18817835882593664, "labeledLatLngs": [{"label": "display", "lat": 51.51909845221029, "lng": -0.18817835882593664}], "distance": 2558, "postalCode": "W2 6ET", "cc": "GB", "city": "London", "state": "Greater London", "country": "United Kingdom", "formattedAddress": ["Lord Hills Bridge", "London", "Greater London", "W2 6ET", "United Kingdom"]}, "categories": [{"id": "4bf58dd8d48988d1fd931735", "name": "Metro Station", "pluralName": "Metro Stations", "shortName": "Metro", "icon": {"prefix": "https://ss3.4sqi.net/img/categories_v2/travel/subway_", "suffix": ".png"}, "primary": true}], "referralId": "v-1592407741", "hasPerk": false}, {"id": "5036b36acc6417d4bcd9a1bc", "name": "Kennington London Underground Station", "location": {"address": "Kennington Park Rd", "lat": 51.4882562694918, "lng": -0.10579540525806266, "labeledLatLngs": [{"label": "display", "lat": 51.4882562694918, "lng": -0.10579540525806266}], "distance": 4216, "postalCode": "SE11 4QJ", "cc": "GB", "city": "London", "state": "Greater London", "country": "United Kingdom", "formattedAddress": ["Kennington Park Rd", "London", "Greater London", "SE11 4QJ", "United Kingdom"]}, "categories": [{"id": "4bf58dd8d48988d1fd931735", "name": "Metro Station", "pluralName": "Metro Stations", "shortName": "Metro", "icon": {"prefix": "https://ss3.4sqi.net/img/categories_v2/travel/subway_", "suffix": ".png"}, "primary": true}], "referralId": "v-1592407741", "hasPerk": false}, {"id": "5036b36bcc6417d4bcd9a1d5", "name": "Leicester Square London Underground Station", "location": {"address": "Cranbourn St", "lat": 51.51136869744197, "lng": -0.12833449862614943, "labeledLatLngs": [{"label": "display", "lat": 51.51136869744197, "lng": -0.12833449862614943}], "distance": 1707, "postalCode": "WC2H 0AP", "cc": "GB", "city": "London", "state": "Greater London", "country": "United Kingdom", "formattedAddress": ["Cranbourn St", "London", "Greater London", "WC2H 0AP", "United Kingdom"]}, "categories": [{"id": "4bf58dd8d48988d1fd931735", "name": "Metro Station", "pluralName": "Metro Stations", "shortName": "Metro", "icon": {"prefix": "https://ss3.4sqi.net/img/categories_v2/travel/subway_", "suffix": ".png"}, "primary": true}], "referralId": "v-1592407741", "hasPerk": false}, {"id": "4b78aa5df964a520e4dc2ee3", "name": "Ladbroke Grove London Underground Station", "location": {"address": "Ladbroke Gr.", "lat": 51.517311310618524, "lng": -0.2109693084117739, "labeledLatLngs": [{"label": "display", "lat": 51.517311310618524, "lng": -0.2109693084117739}], "distance": 4059, "postalCode": "W10 6HJ", "cc": "GB", "city": "London", "state": "Greater London", "country": "United Kingdom", "formattedAddress": ["Ladbroke Gr.", "North Kensington", "Greater London", "W10 6HJ", "United Kingdom"]}, "categories": [{"id": "4bf58dd8d48988d1fd931735", "name": "Metro Station", "pluralName": "Metro Stations", "shortName": "Metro", "icon": {"prefix": "https://ss3.4sqi.net/img/categories_v2/travel/subway_", "suffix": ".png"}, "primary": true}], "referralId": "v-1592407741", "hasPerk": false}, {"id": "4ad1fffcf964a520c7de20e3", "name": "West Brompton London Underground and London Overground Station", "location": {"address": "Old Brompton Rd.", "lat": 51.48696952349744, "lng": -0.19528105244616742, "labeledLatLngs": [{"label": "display", "lat": 51.48696952349744, "lng": -0.19528105244616742}], "distance": 4061, "postalCode": "SW5 9JX", "cc": "GB", "city": "London", "state": "Greater London", "country": "United Kingdom", "formattedAddress": ["Old Brompton Rd.", "London", "Greater London", "SW5 9JX", "United Kingdom"]}, "categories": [{"id": "4bf58dd8d48988d1fd931735", "name": "Metro Station", "pluralName": "Metro Stations", "shortName": "Metro", "icon": {"prefix": "https://ss3.4sqi.net/img/categories_v2/travel/subway_", "suffix": ".png"}, "primary": true}], "referralId": "v-1592407741", "hasPerk": false}, {"id": "4ad36fd0f964a5206ae420e3", "name": "Warwick Avenue London Underground Station", "location": {"address": "Warwick Ave.", "lat": 51.52334227847361, "lng": -0.18373986283518187, "labeledLatLngs": [{"label": "display", "lat": 51.52334227847361, "lng": -0.18373986283518187}], "distance": 2467, "postalCode": "W9 2PT", "cc": "GB", "city": "London", "state": "Greater London", "country": "United Kingdom", "formattedAddress": ["Warwick Ave.", "London", "Greater London", "W9 2PT", "United Kingdom"]}, "categories": [{"id": "4bf58dd8d48988d1fd931735", "name": "Metro Station", "pluralName": "Metro Stations", "shortName": "Metro", "icon": {"prefix": "https://ss3.4sqi.net/img/categories_v2/travel/subway_", "suffix": ".png"}, "primary": true}], "referralId": "v-1592407741", "hasPerk": false}, {"id": "4acdc287f964a520efcc20e3", "name": "Hampstead London Underground Station", "location": {"address": "Hampstead High St", "crossStreet": "Heath St", "lat": 51.55663569730655, "lng": -0.17844925520646576, "labeledLatLngs": [{"label": "display", "lat": 51.55663569730655, "lng": -0.17844925520646576}], "distance": 5252, "postalCode": "NW3 1QG", "cc": "GB", "city": "London", "state": "Greater London", "country": "United Kingdom", "formattedAddress": ["Hampstead High St (Heath St)", "London", "Greater London", "NW3 1QG", "United Kingdom"]}, "categories": [{"id": "4bf58dd8d48988d1fd931735", "name": "Metro Station", "pluralName": "Metro Stations", "shortName": "Metro", "icon": {"prefix": "https://ss3.4sqi.net/img/categories_v2/travel/subway_", "suffix": ".png"}, "primary": true}], "referralId": "v-1592407741", "hasPerk": false}, {"id": "4b6145b5f964a520a70e2ae3", "name": "Vauxhall London Underground Station", "location": {"address": "Vauxhall Cross", "lat": 51.48590378588932, "lng": -0.12373755983661565, "labeledLatLngs": [{"label": "display", "lat": 51.48590378588932, "lng": -0.12373755983661565}], "distance": 3559, "postalCode": "SW8 1SR", "cc": "GB", "city": "London", "state": "Greater London", "country": "United Kingdom", "formattedAddress": ["Vauxhall Cross", "London", "Greater London", "SW8 1SR", "United Kingdom"]}, "categories": [{"id": "4bf58dd8d48988d1fd931735", "name": "Metro Station", "pluralName": "Metro Stations", "shortName": "Metro", "icon": {"prefix": "https://ss3.4sqi.net/img/categories_v2/travel/subway_", "suffix": ".png"}, "primary": true}], "referralId": "v-1592407741", "hasPerk": false}], "confident": false}}